{
  "telegram_chat_id": "-1002585455176",
  "miembros": [
    {
      "nombre": "larry",
      "direccion": "Av. Larco herrera camilla jajaja 123",
      "telefono": "+51960661434",
      "geolocalizacion": {
        "lat": -12.1225,
        "lon": -77.0290
      }
    },
    {
      "nombre": "codigo",
      "direccion": "Av. peru 534 cruce palmas ",
      "telefono": "+51917226125",
      "geolocalizacion": {
        "lat": -12.0574,
        "lon": -77.0370
      }
    },
    {
      "nombre": "pulga",
      "direccion": "Calle Los Sauces con salsa de tomate 456",
      "telefono": "+51980516446",
      "geolocalizacion": {
        "lat": -12.1333,
        "lon": -77.0333
      }
    },
    {
      "nombre": "muloin",
      "direccion": "Calle trueno 789",
      "telefono": "+51929145876",
      "geolocalizacion": {
        "lat": -12.0833,
        "lon": -77.0750
      }
    },
    {
      "nombre": "poronguito",
      "direccion": "Av. huracán con relámpago 321",
      "telefono": "+51991363320",
      "geolocalizacion": {
        "lat": -12.1481,
        "lon": -77.0222
      }
    }
  ]
}
